[
   {
      "unit" : "環境保護署",
      "location" : {
         "lat" : "25.164500",
         "lon" : "121.449239"
      },
      "county" : "新北市",
      "uvi" : "0",
      "site_name" : "淡水",
      "data_creation_date" : "2013-08-28 19:00"
   },
   {
      "unit" : "環境保護署",
      "location" : {
         "lat" : "25.012972",
         "lon" : "121.458667"
      },
      "county" : "新北市",
      "uvi" : "0",
      "site_name" : "板橋",
      "data_creation_date" : "2013-08-28 19:00"
   },
   {
      "unit" : "環境保護署",
      "location" : {
         "lat" : "24.994789",
         "lon" : "121.319964"
      },
      "county" : "桃園縣",
      "uvi" : "0",
      "site_name" : "桃園",
      "data_creation_date" : "2013-08-28 19:00"
   },
   {
      "unit" : "環境保護署",
      "location" : {
         "lat" : "24.565269",
         "lon" : "120.820200"
      },
      "county" : "苗栗縣",
      "uvi" : "0",
      "site_name" : "苗栗",
      "data_creation_date" : "2013-08-28 19:00"
   },
   {
      "unit" : "環境保護署",
      "location" : {
         "lat" : "24.225628",
         "lon" : "120.568794"
      },
      "county" : "台中市",
      "uvi" : "0",
      "site_name" : "沙鹿",
      "data_creation_date" : "2013-08-28 19:00"
   },
   {
      "unit" : "環境保護署",
      "location" : {
         "lat" : "24.066000",
         "lon" : "120.541519"
      },
      "county" : "彰化縣",
      "uvi" : "0",
      "site_name" : "彰化",
      "data_creation_date" : "2013-08-28 19:00"
   },
   {
      "unit" : "環境保護署",
      "location" : {
         "lat" : "23.913000",
         "lon" : "120.685306"
      },
      "county" : "南投縣",
      "uvi" : "0",
      "site_name" : "南投",
      "data_creation_date" : "2013-08-28 19:00"
   },
   {
      "unit" : "環境保護署",
      "location" : {
         "lat" : "23.711853",
         "lon" : "120.544994"
      },
      "county" : "雲林縣",
      "uvi" : "0",
      "site_name" : "斗六",
      "data_creation_date" : "2013-08-28 19:00"
   },
   {
      "unit" : "環境保護署",
      "location" : {
         "lat" : "23.508561",
         "lon" : "120.801394"
      },
      "county" : "嘉義縣",
      "uvi" : "0",
      "site_name" : "阿里山",
      "data_creation_date" : "2013-08-28 19:00"
   },
   {
      "unit" : "環境保護署",
      "location" : {
         "lat" : "23.470608",
         "lon" : "120.880572"
      },
      "county" : "嘉義縣",
      "uvi" : "0",
      "site_name" : "塔塔加",
      "data_creation_date" : "2013-08-28 19:00"
   },
   {
      "unit" : "環境保護署",
      "location" : {
         "lat" : "23.465308",
         "lon" : "120.247350"
      },
      "county" : "嘉義縣",
      "uvi" : "0",
      "site_name" : "朴子",
      "data_creation_date" : "2013-08-28 19:00"
   },
   {
      "unit" : "環境保護署",
      "location" : {
         "lat" : "23.305633",
         "lon" : "120.317250"
      },
      "county" : "台南市",
      "uvi" : "0",
      "site_name" : "新營",
      "data_creation_date" : "2013-08-28 19:00"
   },
   {
      "unit" : "環境保護署",
      "location" : {
         "lat" : "22.757506",
         "lon" : "120.305689"
      },
      "county" : "高雄市",
      "uvi" : "0",
      "site_name" : "橋頭",
      "data_creation_date" : "2013-08-28 19:00"
   },
   {
      "unit" : "環境保護署",
      "location" : {
         "lat" : "22.673081",
         "lon" : "120.488033"
      },
      "county" : "屏東縣",
      "uvi" : "0",
      "site_name" : "屏東",
      "data_creation_date" : "2013-08-28 19:00"
   }
]
