[
   {
      "county" : "高雄市",
      "site_name" : "高雄",
      "location" : {
         "lat" : "22.567778",
         "lon" : "120.308056"
      },
      "uvi" : "0",
      "data_creation_date" : "2014-01-25 02:00",
      "unit" : "中央氣象局"
   },
   {
      "location" : {
         "lon" : "120.951667",
         "lat" : "23.489167"
      },
      "site_name" : "玉山",
      "county" : "南投縣",
      "uvi" : "0",
      "data_creation_date" : "2014-01-25 02:00",
      "unit" : "中央氣象局"
   },
   {
      "data_creation_date" : "2014-01-25 02:00",
      "unit" : "中央氣象局",
      "site_name" : "新竹",
      "county" : "新竹縣",
      "location" : {
         "lon" : "121.006111",
         "lat" : "24.830000"
      },
      "uvi" : "0"
   },
   {
      "unit" : "中央氣象局",
      "data_creation_date" : "2014-01-25 02:00",
      "uvi" : "0",
      "location" : {
         "lon" : "121.748056",
         "lat" : "24.765556"
      },
      "site_name" : "宜蘭",
      "county" : "宜蘭縣"
   },
   {
      "location" : {
         "lon" : "121.605000",
         "lat" : "23.976944"
      },
      "county" : "花蓮縣",
      "site_name" : "花蓮",
      "uvi" : "0",
      "data_creation_date" : "2014-01-25 02:00",
      "unit" : "中央氣象局"
   },
   {
      "location" : {
         "lon" : "121.043333",
         "lat" : "25.015833"
      },
      "site_name" : "新屋",
      "county" : "桃園縣",
      "uvi" : "0",
      "data_creation_date" : "2014-01-25 02:00",
      "unit" : "中央氣象局"
   },
   {
      "data_creation_date" : "2014-01-25 02:00",
      "unit" : "中央氣象局",
      "county" : "連江縣",
      "site_name" : "馬祖",
      "location" : {
         "lat" : "26.169444",
         "lon" : "119.923056"
      },
      "uvi" : "0"
   },
   {
      "unit" : "中央氣象局",
      "data_creation_date" : "2014-01-25 02:00",
      "uvi" : "0",
      "location" : {
         "lon" : "121.365278",
         "lat" : "23.099167"
      },
      "site_name" : "成功",
      "county" : "臺東縣"
   },
   {
      "uvi" : "0",
      "location" : {
         "lat" : "25.039722",
         "lon" : "121.506667"
      },
      "site_name" : "臺北",
      "county" : "臺北市",
      "unit" : "中央氣象局",
      "data_creation_date" : "2014-01-25 02:00"
   },
   {
      "data_creation_date" : "2014-01-25 02:00",
      "unit" : "中央氣象局",
      "location" : {
         "lon" : "120.908056",
         "lat" : "23.881389"
      },
      "site_name" : "日月潭",
      "county" : "南投縣",
      "uvi" : "0"
   },
   {
      "uvi" : "0",
      "county" : "澎湖縣",
      "site_name" : "澎湖",
      "location" : {
         "lat" : "23.567222",
         "lon" : "119.555278"
      },
      "unit" : "中央氣象局",
      "data_creation_date" : "2014-01-25 02:00"
   },
   {
      "data_creation_date" : "2014-01-25 02:00",
      "unit" : "中央氣象局",
      "site_name" : "臺南",
      "county" : "臺南市",
      "location" : {
         "lat" : "22.993333",
         "lon" : "120.204722"
      },
      "uvi" : "0"
   },
   {
      "unit" : "中央氣象局",
      "data_creation_date" : "2014-01-25 02:00",
      "uvi" : "0",
      "county" : "金門縣",
      "site_name" : "金門",
      "location" : {
         "lon" : "118.289167",
         "lat" : "24.407500"
      }
   },
   {
      "site_name" : "鞍部",
      "county" : "臺北市",
      "location" : {
         "lon" : "121.520000",
         "lat" : "25.186389"
      },
      "uvi" : "0",
      "data_creation_date" : "2014-01-25 02:00",
      "unit" : "中央氣象局"
   },
   {
      "uvi" : "0",
      "county" : "臺東縣",
      "site_name" : "蘭嶼",
      "location" : {
         "lat" : "22.038611",
         "lon" : "121.550556"
      },
      "unit" : "中央氣象局",
      "data_creation_date" : "2014-01-25 02:00"
   },
   {
      "unit" : "中央氣象局",
      "data_creation_date" : "2014-01-25 02:00",
      "uvi" : "0",
      "county" : "臺東縣",
      "site_name" : "臺東",
      "location" : {
         "lon" : "121.146667",
         "lat" : "22.754167"
      }
   },
   {
      "unit" : "中央氣象局",
      "data_creation_date" : "2014-01-25 02:00",
      "uvi" : "0",
      "site_name" : "恆春",
      "county" : "屏東縣",
      "location" : {
         "lon" : "120.738056",
         "lat" : "22.005556"
      }
   },
   {
      "unit" : "中央氣象局",
      "data_creation_date" : "2014-01-25 02:00",
      "uvi" : "0",
      "location" : {
         "lat" : "25.134722",
         "lon" : "121.732222"
      },
      "county" : "基隆市",
      "site_name" : "基隆"
   },
   {
      "data_creation_date" : "2014-01-25 02:00",
      "unit" : "中央氣象局",
      "site_name" : "臺中",
      "county" : "臺中市",
      "location" : {
         "lon" : "120.675833",
         "lat" : "24.147500"
      },
      "uvi" : "0"
   },
   {
      "county" : "嘉義市",
      "site_name" : "嘉義",
      "location" : {
         "lon" : "120.424444",
         "lat" : "23.497778"
      },
      "uvi" : "0",
      "data_creation_date" : "2014-01-25 02:00",
      "unit" : "中央氣象局"
   }
]
