[
   {
      "unit" : "中央氣象局",
      "site_name" : "高雄",
      "uvi" : "0",
      "data_creation_date" : "2014-01-25 02:00",
      "county" : "高雄市",
      "location" : {
         "lon" : "120.308056",
         "lat" : "22.567778"
      }
   },
   {
      "county" : "南投縣",
      "site_name" : "玉山",
      "unit" : "中央氣象局",
      "uvi" : "0",
      "data_creation_date" : "2014-01-25 02:00",
      "location" : {
         "lat" : "23.489167",
         "lon" : "120.951667"
      }
   },
   {
      "site_name" : "新竹",
      "unit" : "中央氣象局",
      "uvi" : "0",
      "data_creation_date" : "2014-01-25 02:00",
      "county" : "新竹縣",
      "location" : {
         "lon" : "121.006111",
         "lat" : "24.830000"
      }
   },
   {
      "location" : {
         "lon" : "121.748056",
         "lat" : "24.765556"
      },
      "county" : "宜蘭縣",
      "data_creation_date" : "2014-01-25 02:00",
      "unit" : "中央氣象局",
      "site_name" : "宜蘭",
      "uvi" : "0"
   },
   {
      "location" : {
         "lat" : "23.976944",
         "lon" : "121.605000"
      },
      "county" : "花蓮縣",
      "unit" : "中央氣象局",
      "site_name" : "花蓮",
      "uvi" : "0",
      "data_creation_date" : "2014-01-25 02:00"
   },
   {
      "location" : {
         "lon" : "121.043333",
         "lat" : "25.015833"
      },
      "county" : "桃園縣",
      "data_creation_date" : "2014-01-25 02:00",
      "uvi" : "0",
      "unit" : "中央氣象局",
      "site_name" : "新屋"
   },
   {
      "data_creation_date" : "2014-01-25 02:00",
      "uvi" : "0",
      "unit" : "中央氣象局",
      "site_name" : "馬祖",
      "county" : "連江縣",
      "location" : {
         "lat" : "26.169444",
         "lon" : "119.923056"
      }
   },
   {
      "county" : "臺東縣",
      "data_creation_date" : "2014-01-25 02:00",
      "unit" : "中央氣象局",
      "site_name" : "成功",
      "uvi" : "0",
      "location" : {
         "lon" : "121.365278",
         "lat" : "23.099167"
      }
   },
   {
      "location" : {
         "lon" : "121.506667",
         "lat" : "25.039722"
      },
      "unit" : "中央氣象局",
      "uvi" : "0",
      "site_name" : "臺北",
      "data_creation_date" : "2014-01-25 02:00",
      "county" : "臺北市"
   },
   {
      "location" : {
         "lon" : "120.908056",
         "lat" : "23.881389"
      },
      "data_creation_date" : "2014-01-25 02:00",
      "site_name" : "日月潭",
      "unit" : "中央氣象局",
      "uvi" : "0",
      "county" : "南投縣"
   },
   {
      "data_creation_date" : "2014-01-25 02:00",
      "uvi" : "0",
      "unit" : "中央氣象局",
      "site_name" : "澎湖",
      "county" : "澎湖縣",
      "location" : {
         "lon" : "119.555278",
         "lat" : "23.567222"
      }
   },
   {
      "county" : "臺南市",
      "data_creation_date" : "2014-01-25 02:00",
      "site_name" : "臺南",
      "unit" : "中央氣象局",
      "uvi" : "0",
      "location" : {
         "lon" : "120.204722",
         "lat" : "22.993333"
      }
   },
   {
      "location" : {
         "lat" : "24.407500",
         "lon" : "118.289167"
      },
      "uvi" : "0",
      "unit" : "中央氣象局",
      "site_name" : "金門",
      "data_creation_date" : "2014-01-25 02:00",
      "county" : "金門縣"
   },
   {
      "county" : "臺北市",
      "data_creation_date" : "2014-01-25 02:00",
      "unit" : "中央氣象局",
      "uvi" : "0",
      "site_name" : "鞍部",
      "location" : {
         "lat" : "25.186389",
         "lon" : "121.520000"
      }
   },
   {
      "unit" : "中央氣象局",
      "uvi" : "0",
      "site_name" : "蘭嶼",
      "data_creation_date" : "2014-01-25 02:00",
      "county" : "臺東縣",
      "location" : {
         "lon" : "121.550556",
         "lat" : "22.038611"
      }
   },
   {
      "location" : {
         "lat" : "22.754167",
         "lon" : "121.146667"
      },
      "site_name" : "臺東",
      "unit" : "中央氣象局",
      "uvi" : "0",
      "data_creation_date" : "2014-01-25 02:00",
      "county" : "臺東縣"
   },
   {
      "site_name" : "恆春",
      "unit" : "中央氣象局",
      "uvi" : "0",
      "data_creation_date" : "2014-01-25 02:00",
      "county" : "屏東縣",
      "location" : {
         "lat" : "22.005556",
         "lon" : "120.738056"
      }
   },
   {
      "location" : {
         "lon" : "121.732222",
         "lat" : "25.134722"
      },
      "county" : "基隆市",
      "data_creation_date" : "2014-01-25 02:00",
      "unit" : "中央氣象局",
      "site_name" : "基隆",
      "uvi" : "0"
   },
   {
      "location" : {
         "lon" : "120.675833",
         "lat" : "24.147500"
      },
      "uvi" : "0",
      "unit" : "中央氣象局",
      "site_name" : "臺中",
      "data_creation_date" : "2014-01-25 02:00",
      "county" : "臺中市"
   },
   {
      "location" : {
         "lon" : "120.424444",
         "lat" : "23.497778"
      },
      "county" : "嘉義市",
      "unit" : "中央氣象局",
      "uvi" : "0",
      "site_name" : "嘉義",
      "data_creation_date" : "2014-01-25 02:00"
   }
]
