[
   {
      "unit" : "中央氣象局",
      "uvi" : "0",
      "site_name" : "高雄",
      "county" : "高雄市",
      "location" : {
         "lat" : "22.567778",
         "lon" : "120.308056"
      },
      "data_creation_date" : "2014-01-25 02:00"
   },
   {
      "uvi" : "0",
      "unit" : "中央氣象局",
      "site_name" : "玉山",
      "county" : "南投縣",
      "location" : {
         "lon" : "120.951667",
         "lat" : "23.489167"
      },
      "data_creation_date" : "2014-01-25 02:00"
   },
   {
      "uvi" : "0",
      "unit" : "中央氣象局",
      "data_creation_date" : "2014-01-25 02:00",
      "location" : {
         "lat" : "24.830000",
         "lon" : "121.006111"
      },
      "county" : "新竹縣",
      "site_name" : "新竹"
   },
   {
      "uvi" : "0",
      "unit" : "中央氣象局",
      "location" : {
         "lat" : "24.765556",
         "lon" : "121.748056"
      },
      "county" : "宜蘭縣",
      "data_creation_date" : "2014-01-25 02:00",
      "site_name" : "宜蘭"
   },
   {
      "site_name" : "花蓮",
      "county" : "花蓮縣",
      "location" : {
         "lat" : "23.976944",
         "lon" : "121.605000"
      },
      "data_creation_date" : "2014-01-25 02:00",
      "unit" : "中央氣象局",
      "uvi" : "0"
   },
   {
      "site_name" : "新屋",
      "data_creation_date" : "2014-01-25 02:00",
      "location" : {
         "lat" : "25.015833",
         "lon" : "121.043333"
      },
      "county" : "桃園縣",
      "uvi" : "0",
      "unit" : "中央氣象局"
   },
   {
      "site_name" : "馬祖",
      "location" : {
         "lat" : "26.169444",
         "lon" : "119.923056"
      },
      "data_creation_date" : "2014-01-25 02:00",
      "county" : "連江縣",
      "uvi" : "0",
      "unit" : "中央氣象局"
   },
   {
      "site_name" : "成功",
      "data_creation_date" : "2014-01-25 02:00",
      "location" : {
         "lon" : "121.365278",
         "lat" : "23.099167"
      },
      "county" : "臺東縣",
      "uvi" : "0",
      "unit" : "中央氣象局"
   },
   {
      "unit" : "中央氣象局",
      "uvi" : "0",
      "location" : {
         "lon" : "121.506667",
         "lat" : "25.039722"
      },
      "data_creation_date" : "2014-01-25 02:00",
      "county" : "臺北市",
      "site_name" : "臺北"
   },
   {
      "site_name" : "日月潭",
      "data_creation_date" : "2014-01-25 02:00",
      "location" : {
         "lat" : "23.881389",
         "lon" : "120.908056"
      },
      "county" : "南投縣",
      "uvi" : "0",
      "unit" : "中央氣象局"
   },
   {
      "unit" : "中央氣象局",
      "uvi" : "0",
      "county" : "澎湖縣",
      "location" : {
         "lat" : "23.567222",
         "lon" : "119.555278"
      },
      "data_creation_date" : "2014-01-25 02:00",
      "site_name" : "澎湖"
   },
   {
      "county" : "臺南市",
      "location" : {
         "lat" : "22.993333",
         "lon" : "120.204722"
      },
      "data_creation_date" : "2014-01-25 02:00",
      "site_name" : "臺南",
      "unit" : "中央氣象局",
      "uvi" : "0"
   },
   {
      "county" : "金門縣",
      "location" : {
         "lon" : "118.289167",
         "lat" : "24.407500"
      },
      "data_creation_date" : "2014-01-25 02:00",
      "site_name" : "金門",
      "unit" : "中央氣象局",
      "uvi" : "0"
   },
   {
      "uvi" : "0",
      "unit" : "中央氣象局",
      "site_name" : "鞍部",
      "data_creation_date" : "2014-01-25 02:00",
      "location" : {
         "lat" : "25.186389",
         "lon" : "121.520000"
      },
      "county" : "臺北市"
   },
   {
      "uvi" : "0",
      "unit" : "中央氣象局",
      "county" : "臺東縣",
      "location" : {
         "lat" : "22.038611",
         "lon" : "121.550556"
      },
      "data_creation_date" : "2014-01-25 02:00",
      "site_name" : "蘭嶼"
   },
   {
      "site_name" : "臺東",
      "county" : "臺東縣",
      "location" : {
         "lat" : "22.754167",
         "lon" : "121.146667"
      },
      "data_creation_date" : "2014-01-25 02:00",
      "unit" : "中央氣象局",
      "uvi" : "0"
   },
   {
      "uvi" : "0",
      "unit" : "中央氣象局",
      "location" : {
         "lon" : "120.738056",
         "lat" : "22.005556"
      },
      "county" : "屏東縣",
      "data_creation_date" : "2014-01-25 02:00",
      "site_name" : "恆春"
   },
   {
      "unit" : "中央氣象局",
      "uvi" : "0",
      "county" : "基隆市",
      "location" : {
         "lon" : "121.732222",
         "lat" : "25.134722"
      },
      "data_creation_date" : "2014-01-25 02:00",
      "site_name" : "基隆"
   },
   {
      "site_name" : "臺中",
      "location" : {
         "lon" : "120.675833",
         "lat" : "24.147500"
      },
      "county" : "臺中市",
      "data_creation_date" : "2014-01-25 02:00",
      "uvi" : "0",
      "unit" : "中央氣象局"
   },
   {
      "site_name" : "嘉義",
      "county" : "嘉義市",
      "location" : {
         "lon" : "120.424444",
         "lat" : "23.497778"
      },
      "data_creation_date" : "2014-01-25 02:00",
      "uvi" : "0",
      "unit" : "中央氣象局"
   }
]
