[
   {
      "county" : "高雄市",
      "unit" : "中央氣象局",
      "data_creation_date" : "2014-01-25 02:00",
      "site_name" : "高雄",
      "location" : {
         "lon" : "120.308056",
         "lat" : "22.567778"
      },
      "uvi" : "0"
   },
   {
      "site_name" : "玉山",
      "location" : {
         "lon" : "120.951667",
         "lat" : "23.489167"
      },
      "uvi" : "0",
      "county" : "南投縣",
      "unit" : "中央氣象局",
      "data_creation_date" : "2014-01-25 02:00"
   },
   {
      "uvi" : "0",
      "location" : {
         "lon" : "121.006111",
         "lat" : "24.830000"
      },
      "site_name" : "新竹",
      "unit" : "中央氣象局",
      "data_creation_date" : "2014-01-25 02:00",
      "county" : "新竹縣"
   },
   {
      "site_name" : "宜蘭",
      "uvi" : "0",
      "location" : {
         "lat" : "24.765556",
         "lon" : "121.748056"
      },
      "county" : "宜蘭縣",
      "unit" : "中央氣象局",
      "data_creation_date" : "2014-01-25 02:00"
   },
   {
      "unit" : "中央氣象局",
      "data_creation_date" : "2014-01-25 02:00",
      "county" : "花蓮縣",
      "uvi" : "0",
      "location" : {
         "lon" : "121.605000",
         "lat" : "23.976944"
      },
      "site_name" : "花蓮"
   },
   {
      "county" : "桃園縣",
      "data_creation_date" : "2014-01-25 02:00",
      "unit" : "中央氣象局",
      "site_name" : "新屋",
      "uvi" : "0",
      "location" : {
         "lon" : "121.043333",
         "lat" : "25.015833"
      }
   },
   {
      "county" : "連江縣",
      "data_creation_date" : "2014-01-25 02:00",
      "unit" : "中央氣象局",
      "site_name" : "馬祖",
      "uvi" : "0",
      "location" : {
         "lon" : "119.923056",
         "lat" : "26.169444"
      }
   },
   {
      "unit" : "中央氣象局",
      "data_creation_date" : "2014-01-25 02:00",
      "county" : "臺東縣",
      "uvi" : "0",
      "location" : {
         "lon" : "121.365278",
         "lat" : "23.099167"
      },
      "site_name" : "成功"
   },
   {
      "uvi" : "0",
      "location" : {
         "lon" : "121.506667",
         "lat" : "25.039722"
      },
      "site_name" : "臺北",
      "unit" : "中央氣象局",
      "data_creation_date" : "2014-01-25 02:00",
      "county" : "臺北市"
   },
   {
      "data_creation_date" : "2014-01-25 02:00",
      "unit" : "中央氣象局",
      "county" : "南投縣",
      "location" : {
         "lon" : "120.908056",
         "lat" : "23.881389"
      },
      "uvi" : "0",
      "site_name" : "日月潭"
   },
   {
      "county" : "澎湖縣",
      "unit" : "中央氣象局",
      "data_creation_date" : "2014-01-25 02:00",
      "site_name" : "澎湖",
      "uvi" : "0",
      "location" : {
         "lat" : "23.567222",
         "lon" : "119.555278"
      }
   },
   {
      "county" : "臺南市",
      "data_creation_date" : "2014-01-25 02:00",
      "unit" : "中央氣象局",
      "site_name" : "臺南",
      "location" : {
         "lon" : "120.204722",
         "lat" : "22.993333"
      },
      "uvi" : "0"
   },
   {
      "unit" : "中央氣象局",
      "data_creation_date" : "2014-01-25 02:00",
      "county" : "金門縣",
      "uvi" : "0",
      "location" : {
         "lon" : "118.289167",
         "lat" : "24.407500"
      },
      "site_name" : "金門"
   },
   {
      "data_creation_date" : "2014-01-25 02:00",
      "unit" : "中央氣象局",
      "county" : "臺北市",
      "location" : {
         "lat" : "25.186389",
         "lon" : "121.520000"
      },
      "uvi" : "0",
      "site_name" : "鞍部"
   },
   {
      "county" : "臺東縣",
      "unit" : "中央氣象局",
      "data_creation_date" : "2014-01-25 02:00",
      "site_name" : "蘭嶼",
      "location" : {
         "lat" : "22.038611",
         "lon" : "121.550556"
      },
      "uvi" : "0"
   },
   {
      "uvi" : "0",
      "location" : {
         "lat" : "22.754167",
         "lon" : "121.146667"
      },
      "site_name" : "臺東",
      "data_creation_date" : "2014-01-25 02:00",
      "unit" : "中央氣象局",
      "county" : "臺東縣"
   },
   {
      "data_creation_date" : "2014-01-25 02:00",
      "unit" : "中央氣象局",
      "county" : "屏東縣",
      "uvi" : "0",
      "location" : {
         "lon" : "120.738056",
         "lat" : "22.005556"
      },
      "site_name" : "恆春"
   },
   {
      "location" : {
         "lon" : "121.732222",
         "lat" : "25.134722"
      },
      "uvi" : "0",
      "site_name" : "基隆",
      "data_creation_date" : "2014-01-25 02:00",
      "unit" : "中央氣象局",
      "county" : "基隆市"
   },
   {
      "county" : "臺中市",
      "unit" : "中央氣象局",
      "data_creation_date" : "2014-01-25 02:00",
      "site_name" : "臺中",
      "uvi" : "0",
      "location" : {
         "lat" : "24.147500",
         "lon" : "120.675833"
      }
   },
   {
      "site_name" : "嘉義",
      "uvi" : "0",
      "location" : {
         "lat" : "23.497778",
         "lon" : "120.424444"
      },
      "county" : "嘉義市",
      "data_creation_date" : "2014-01-25 02:00",
      "unit" : "中央氣象局"
   }
]
